"d","Country","Deposit_Name","Resource_Type","Latitude","Longitude","Status","Status_Delay","Grade_percLi_Reserve","grade_resource","grade_resource_inferred","open_mine","reserve","resource_demostrated","resource_inferred","all_resource","cost1","cost2","cost3","max_prod_rate","max_ramp_up","cost_expansion","cost_opening","cost_source","prod_rate2022","prod_rate2023","prod_rate2025","prod_rate2030","delay_years","Resource_Type_orig","edb","wgi","Corporate_Tax_Rate","cost1_noTax","cost2_noTax","cost3_noTax","label_name","wcr"
1,"Chile","Salar de Atacama (SQM)","Brine",-23.55,-68.36,"Producing","Open",0.2,0.186341463414634,0.13,TRUE,360,7840,2600,10800,51066.2005,51211.2682183842,51809.6725567187,324,81,56955.8377136237,0,"Report",27.1428571428571,31.4285714285714,39.4514371594965,39.4514371594965,3,"Brine",27.4,2.38,0.27,21238.77,21461.9511052064,22382.5731641827,"Salar de Atacama",40.3
2,"Bolivia","Salar de Uyuni","Brine",-20.16,-67.63,"Producing","Open",NA,NA,NA,TRUE,5400,0,4806.52,10206.52,49440.1922566318,51568.2875970975,53737.5718391745,102.0652,25.5163,56955.8377136237,0,"Quantile",0,0,0,0,3,"Brine",48.3,2.78,0.25,24045.9896755091,26883.4501294634,29775.8291188993,"Salar de Uyuni",80
3,"United States","Salton Sea (All)","Brine",33.163,-115.617,"No info","No Info",NA,0.0198,0.0198,FALSE,0,3360,3400,6760,46438.5951921589,47625.8755714678,51129.3876408788,202.8,50.7,56955.8377136237,199701729.182192,"Quantile",0,0,0,0,10,"Other (Geothermal)",16,2.54,0.25,23592.5269228785,25175.5674286237,29846.9168545051,"Salton Sea",16.5
4,"Germany","Upper Rhine Valley","Brine",49.154,8.153,"Evaluation","Evaluation",NA,0.0178563250066673,0.0172,FALSE,106.899296155929,2006.4753654575,3096.88576069302,5210.26042230644,59014.5533144894,61268.3000520577,61275.8071182513,156.307812669193,39.0769531672983,56955.8377136237,199701729.182192,"Report",0,0,0,0,8,"Other (Geothermal)",20.3,1.89,0.3,23472.2190206992,26691.8572172253,26702.5815975019,"Upper Rhine Valley",27.3
5,"Argentina","Cauchari","Brine",-23.7,-66.75,"Producing","Open",0.0607,0.0591820950746709,0.0592,TRUE,682.92,3046.78,887.3,4617,54303.1569738201,54319.2786866307,58337.1771983124,46.17,11.5425,56955.8377136237,0,"Report",1.92408759124088,2.8029197080292,7.51455945895172,7.51455945895172,3,"Brine",41,2.51,0.35,21305.1645751079,21329.967210201,27511.3495358652,"Cauchari",64.1
6,"Tanzania","Titan","Volcano-Sedimentary",-4.33,37.54,"No info","No Info",NA,NA,NA,FALSE,0,0,4426,4426,58151.6944618064,61722.4870097457,69645.7228645853,132.78,33.195,82730.3782542635,2.5e+08,"Quantile",0,0,0,0,10,"Volcano-Sedimentary",45.5,2.77,0.3,32885.5635168663,37986.6957282081,49305.6040922647,"Titan",80
7,"Argentina","Salar de Olaroz (Allkem)","Brine",-23.46,-66.73,"Producing","Open",NA,0.0642307958477509,0.0609,TRUE,0,2890,1360,4250,53661.1776908924,56104.5977813184,56139.9742618818,127.5,31.875,56955.8377136237,0,"Report",1.20255474452555,1.75182481751825,4.69659966184482,7.9842194251362,3,"Brine",41,2.51,0.35,20317.5041398344,24076.6119712591,24131.037325972,"Salar de Olaroz (Allkem)",64.1
8,"United States","McDermitt","Volcano-Sedimentary",42.0357,-118.05263,"No info","No Info",NA,0.142,0.127,FALSE,0,2085.38170005414,1953.87114239307,4039.25284244721,52298.6187494657,60825.0550330252,64605.7433009147,121.177585273416,30.2943963183541,82730.3782542635,2.5e+08,"Quantile",0,0,0,0,10,"Volcano-Sedimentary",16,2.54,0.25,31462.6703326209,42831.2520440336,47872.1697345529,"McDermitt",16.5
9,"United States","Thacker Pass","Volcano-Sedimentary",41.713456,-118.074509,"Construction","Construction",0.316,0.211086956521739,0.187,TRUE,695.127233351381,2329.61559285328,563.616675690309,3588.35950189497,57437.8315,67072.8723138989,69733.5560771135,107.650785056849,26.9126962642122,82730.3782542635,0,"Report",0,0,0,14.2776629720083,5,"Volcano-Sedimentary",16,2.54,0.25,38314.954,51161.6750851986,54709.2534361514,"Thacker Pass",16.5
10,"United States","Bonnie Claire","Hard Rock",37.2287,-117.04309,"Evaluation","Evaluation",NA,NA,0.1013,FALSE,0,0,3452,3452,53672.2534705,60975.8793159793,64201.6259615352,172.6,43.15,19102.9684159287,126053693.925837,"Report",0,0,0,0,8,"Other (In Situ)",16,2.54,0.25,33294.183294,43032.3510879724,47333.3466153802,"Bonnie Claire",16.5
11,"DR Congo","Manono-Kitotolo","Hard Rock",-7.28,27.45,"Evaluation","Evaluation",0.733949129852744,0.76641405771786,0.771111111111111,FALSE,682.85140562249,1378.94176706827,1004.0702811245,3065.86345381526,55108.9249421642,59283.7971949133,64932.470199743,153.293172690763,38.3232931726908,19102.9684159287,126053693.925837,"Report",0,0,0,0,8,"Hard Rock",63.8,4.48,0.3,27778.3213459488,33742.4245641619,41811.9574282043,"Manono-Kitotolo",80
12,"Argentina","Salar del Hombre Muerto (POSCO)","Brine",-25.22,-66.96,"Construction","Construction",NA,NA,NA,TRUE,2539.4688684353,0,0,2539.4688684353,52072.8473781049,53053.7162186556,55858.1284932011,25.394688684353,6.34867217108825,56955.8377136237,0,"Report",0,0,0,0,5,"Brine",41,2.51,0.35,17873.9190432383,19382.948028701,23697.4284510787,"Salar del Hombre Muerto (POSCO)",64.1
13,"Australia","Greenbushes","Hard Rock",-33.85,116.06,"Producing","Open",0.92904953145917,0.838763375650252,0.464524765729585,TRUE,1668.57295850067,348.494296495583,492.760054240695,2509.82730923695,52424.997112759,54868.9920251616,64999.4184507417,125.491365461847,31.3728413654618,19102.9684159287,0,"Report",27.955429924055,32.1842968335841,47.6109336840128,70.8031185421755,3,"Hard Rock",18.8,1.57,0.3,21662.8530182272,25154.2743216594,39626.3120724881,"Greenbushes",18.1
14,"Argentina","Salar del Hombre Muerto (Livent)","Brine",-25.49,-67.1,"Producing","Open",0.0523,0.0726227409638554,0.0892,TRUE,731,597,892,2220,55415.0253909844,57212.857872347,59144.6003470493,66.6,16.65,56955.8377136237,0,"Report",3.12664233576642,4.55474452554745,12.2111591207965,18.7863986473793,3,"Brine",41,2.51,0.35,23015.7313707452,25781.6274959185,28753.5389954605,"Salar del Hombre Muerto (Livent)",64.1
15,"Australia","Pilgangoora","Hard Rock",-21.04,118.91,"Producing","Open",0.552784471218206,NA,0.497041499330656,TRUE,1184.0643373494,0,1026.46966532798,2210.53400267738,70157.2157643506,78441.9302916448,80020.934105098,110.526700133869,27.6316750334672,19102.9684159287,0,"Report",11.1297540907352,12.8133715100834,18.9551005072328,26.4814953973323,3,"Hard Rock",18.8,1.57,0.3,46994.5939490722,58829.9004166354,61085.62015014,"Pilgangoora",18.1
16,"China","Qaidam Basin (All Projects)","Brine",36.9,95.26,"Producing","Open",NA,NA,NA,TRUE,0,0,2021.46248,2021.46248,49763.3968567777,52358.5383273944,54138.372794036,60.6438744,15.1609686,56955.8377136237,0,"Quantile",16.8019968427974,24.5338891952352,24.5338891952352,24.5338891952352,3,"Brine",22.1,2.94,0.25,23767.195809037,27227.3844365258,29600.4970587146,"Qaidam Basin",19
17,"Argentina","Kachi","Brine",-26.47,-67.54,"Evaluation","Evaluation",0.0248333440102498,NA,NA,FALSE,117.4,1254.06724417975,619.978343259339,1991.44558743909,59702.5623275069,61940.7885417043,63451.2391166441,59.7433676231727,14.9358419057932,56955.8377136237,199701729.182192,"Report",0,0,0,0,8,"Brine",41,2.51,0.35,29611.9420423183,33055.3669872374,35379.1371025293,"Kachi",64.1
18,"Argentina","Centenario Ratones","Brine",-24.89,-66.76,"Construction","Construction",0.0438,0.039117679558011,0.0312,TRUE,208.8,777.34131023281,880.932864103953,1867.07417433676,53539.5143518,53589.2454147889,53673.3393220094,56.0122252301029,14.0030563075257,56955.8377136237,0,"Report",0,0,1.80349427014841,4.50873567537103,5,"Brine",41,2.51,0.35,20130.329772,20206.8390996752,20336.2143415529,"Centenario Ratones",64.1
19,"United States","TLC","Volcano-Sedimentary",38.151644,-117.278978,"No info","No Info",NA,NA,NA,FALSE,0,0,1660.04,1660.04,54038.827611499,60228.0975669429,66329.3916268811,49.8012,12.4503,82730.3782542635,2.5e+08,"Quantile",0,0,0,0,10,"Volcano-Sedimentary",16,2.54,0.25,33782.948815332,42035.3087559239,50170.3675025081,"TLC",16.5
20,"Argentina","Salar del Rincon (Rio Tinto)","Brine",-24.09,-67.09,"Producing","Open",0.0392604376108811,NA,NA,TRUE,225.446670276123,432.106118029237,901.786681104494,1559.33946940985,49902.0231830727,52372.3286088365,53554.0831810755,46.7801840822956,11.6950460205739,56955.8377136237,0,"Report",0,0,0,0,3,"Brine",41,2.51,0.35,14534.1895124195,18334.65939821,20152.7433555008,"Salar del Rincon (Rio Tinto)",64.1
21,"Argentina","Mariana","Brine",-24.81,-68.3,"Construction","Construction",NA,NA,NA,TRUE,0,0,1525.52246886844,1525.52246886844,55703.4140582645,58624.8572073048,59790.498844046,15.2552246886844,3.81380617217109,56955.8377136237,0,"Quantile",0,0,1.59684388502724,3.19368777005448,5,"Brine",41,2.51,0.35,23459.4062434838,27953.9341650842,29747.22899084,"Mariana",64.1
22,"Chile","Salar de Atacama (Albemarle)","Brine",-23.64,-68.32,"Producing","Open",0.2071,0.199180353200883,0.1593,TRUE,647,712.912080536913,131.087919463087,1491,48567.1107635695,48651.2255649155,49074.7959680145,44.73,11.1825,56955.8377136237,0,"Report",10.8571428571429,12.5714285714286,15.7805748637986,15.7805748637986,3,"Brine",27.4,2.38,0.27,17394.0165593376,17523.4239460239,18175.0707200224,"",40.3
23,"Australia","Wodgina","Hard Rock",-21.17,118.67,"Producing","Open",0.543493975903614,NA,NA,TRUE,825.56734939759,246.119228367783,337.282070159661,1408.96864792503,62066.21671359,68854.7418983202,71914.187229403,70.4484323962517,17.6121080990629,19102.9684159287,0,"Regression",12.1337682608265,13.9692646644054,20.6650385121172,20.6650385121172,3,"Hard Rock",18.8,1.57,0.3,35436.0238765571,45133.9169976003,49504.5531848615,"Wodgina",18.1
24,"Czech Republic","Cinovec","Hard Rock",50.73,13.7666666507721,"Evaluation","Evaluation",NA,0.207057043479289,0.181164658634538,FALSE,0,849.911097616295,538.464646834165,1388.37574445046,57102.6644854925,64850.438608588,65661.4709403921,69.418787222523,17.3546968056307,19102.9684159287,126053693.925837,"Report",0,0,0,0,8,"Hard Rock",23.7,1.68,0.19,32381.8080067809,41946.9612451703,42948.2357288791,"Cinovec",29.8
25,"United States","Clayton Valley (Century)","Volcano-Sedimentary",37.734579,-117.531291,"Evaluation","Evaluation",0.1129,0.09047,0.07596,FALSE,240.9,939,179.6,1359.5,43311.921772378,46758.3842577457,55638.0899457158,40.785,10.19625,82730.3782542635,2.5e+08,"Report",0,0,0,0,8,"Volcano-Sedimentary",16,2.54,0.25,19480.407696504,24075.6910103276,35915.2985942878,"Clayton Valley",16.5
26,"Mexico","Sonora","Volcano-Sedimentary",29.710514,-109.154739,"Construction","Construction",0.3015,0.32,0.32,TRUE,391.337845154304,447.135896047645,514.769897130482,1353.24363833243,48616.0467317328,54610.6821011192,58857.148061701,40.5973091499729,10.1493272874932,82730.3782542635,0,"Report",0,0,0,0,5,"Volcano-Sedimentary",27.6,3.19,0.3,13909.6747707724,23501.0913617907,30295.4368987215,"Sonora",50.1
27,"Argentina","Sal de Vida","Brine",-25.36,-66.86,"Construction","Construction",0.0757,0.0747409836065574,0.0556,TRUE,467,753,120,1340,54870.7278288868,54880.9135701791,55084.2105194589,13.4,3.35,56955.8377136237,0,"Report",0,0,1.87863986473793,8.38887845200075,5,"Brine",41,2.51,0.35,22178.3505059798,22194.0208771987,22506.7854145522,"Sal de Vida",64.1
28,"Australia","Mt. Holland/Earl Grey","Hard Rock",-32.17,119.73,"Producing","Open",0.696787148594378,0.717028806509636,0.515622489959839,TRUE,656.373493975904,576.475234270415,87.6558232931727,1320.50455153949,52434.9831570837,56286.2581810016,61738.2126757217,66.0252275769746,16.5063068942436,19102.9684159287,0,"Report",4.38437170057339,5.04760329651019,7.46702987037385,8.29663723464212,3,"Hard Rock",18.8,1.57,0.3,21677.1187958339,27178.9402585737,34967.4466796025,"Mt. Holland/Earl Grey",18.1
29,"Argentina","Tres Quebradas","Brine",-27.49,-68.66,"Construction","Construction",0.079,NA,NA,TRUE,244.233892799134,507.255008121278,563.616675690309,1315.10557661072,51010.9621321,52439.0878988868,54926.5018546178,13.1510557661072,3.2877639415268,56955.8377136237,0,"Report",0,0,3.75727972947586,3.75727972947586,5,"Brine",41,2.51,0.35,16240.249434,18437.3659982874,22264.156699412,"Tres Quebradas",64.1
30,"Argentina","Hombre Muerto West (Galan)","Brine",-25.37,-67.23,"Construction","Construction",0.08906,0.087833488372093,0.0887,TRUE,70.2,1005.66974110032,161.130258899676,1237,53069.1347286109,53082.1615446479,56759.7219728517,12.37,3.0925,56955.8377136237,0,"Report",0,0,0,0,5,"Brine",41,2.51,0.35,19406.6688132475,19426.710068689,25084.4953428488,"Hombre Muerto West (Galan)",64.1
31,"Serbia","Jadar","Volcano-Sedimentary",44.42,19.52,"Evaluation","Evaluation",0.840789825970549,0.81756358768407,0.868661311914324,FALSE,139.571111111111,574.496358768407,485.8,1199.86746987952,47632.2553115907,56970.5830549568,61523.4813835663,35.9960240963855,8.99900602409639,82730.3782542635,2.5e+08,"Quantile",0,0,0,0,8,"Volcano-Sedimentary",24.3,2.67,0.15,30988.5356606949,41974.8035940668,47331.1545689016,"Jadar",80
32,"Canada","Praire","Brine",50.44,-104.4,"No info","No Info",NA,0.0106,0.0101,FALSE,0,850,340,1190,38358.2382658694,39877.1071190003,39883.1120856122,11.9,2.975,56955.8377136237,199701729.182192,"Report",0,0,0,0,10,"Brine",20.4,1.73,0.265,13804.5418583257,15871.0300938779,15879.2001164792,"Praire",22.3
33,"United States","Zeus (Noram)","Volcano-Sedimentary",37.7727374,-117.5011243,"Evaluation","Evaluation",NA,0.0941646390879754,0.0871,FALSE,0,972.079,204.678,1176.757,42725.13269125,47884.0959041203,54997.4839005816,35.30271,8.8256775,82730.3782542635,2.5e+08,"Report",0,0,0,0,8,"Volcano-Sedimentary",16,2.54,0.25,18698.022255,25576.6398721604,35061.1572007754,"Zeus (Noram)",16.5
34,"Canada","Boardwalk","Brine",54.36,-116.91,"Evaluation","Evaluation",NA,NA,NA,FALSE,0,0,1151,1151,45550.9216577039,46981.5640949414,49695.1335541713,34.53,8.6325,56955.8377136237,199701729.182192,"Report",0,0,0,0,8,"Brine",20.4,1.73,0.265,23590.50565674,25536.9579523011,29228.8891893487,"Boardwalk",22.3
35,"Argentina","Salar de Cauchari (Allkem)","Brine",-23.77,-66.8,"Evaluation","Evaluation",0.0501,0.0482988023952096,0.0473,FALSE,212,623,285,1120,53444.7318767249,53463.8624494077,53474.4707589937,11.2,2.8,56955.8377136237,199701729.182192,"Report",0,0,0,0,8,"Brine",41,2.51,0.35,19984.5105795768,20013.9422298579,20030.2627061441,"Salar de Cauchari (Allkem)",64.1
36,"Tanzania","Titan 2","Volcano-Sedimentary",-3.97,37.25,"No info","No Info",NA,NA,NA,FALSE,0,0,1102,1102,59418.5098945064,63167.138728161,70929.9698858896,33.06,8.265,82730.3782542635,2.5e+08,"Quantile",0,0,0,0,10,"Volcano-Sedimentary",45.5,2.77,0.3,34695.2998492949,40050.4838973728,51140.242694128,"Titan 2",80
37,"Australia","Kathleen Valley","Hard Rock",-27.48,120.55,"Construction","Construction",0.622463186077644,0.643587384921436,0.603882195448461,TRUE,426.082089692102,404.251587696581,162.355746975441,992.689424364123,59928.5650861329,64895.2513090995,65970.0482167595,49.6344712182062,12.4086178045515,19102.9684159287,0,"Regression",0,0,15.2534285177531,16.9481495397332,5,"Hard Rock",18.8,1.57,0.3,32382.2358373327,39477.5018701421,41012.9260239421,"",18.1
38,"Afghanistan","Nuristan","Hard Rock",35.38,71,"No info","No Info",NA,NA,NA,FALSE,0,0,987.033652,987.033652,57009.8920082616,64591.1427952698,68231.0926214856,49.3516826,12.33792065,19102.9684159287,126053693.925837,"Quantile",0,0,0,0,10,"Hard Rock",55.9,5.05,0.2,34666.740010327,44143.3034940873,48693.240776857,"",80
39,"Argentina","Diablillios/Sal de Los Angeles","Brine",-25.24,-66.76,"Construction","Construction",NA,NA,0.0556,TRUE,0,0,930,930,55622.1356631927,58127.6103638159,59264.0475093097,27.9,6.975,56955.8377136237,0,"Quantile",0,0,3.75727972947586,9.39319932368965,5,"Brine",41,2.51,0.35,23334.3625587579,27188.9390212552,28937.3038604765,"",64.1
40,"Argentina","Pastos Grandes (Lithium Americas)","Brine",-24.53,-66.73,"Evaluation","Evaluation",0.0439,NA,NA,FALSE,177,593.276123443422,149.922035733622,920.198159177044,53564.1136147814,54681.5253045926,57185.693696562,9.20198159177044,2.30049539794261,56955.8377136237,199701729.182192,"Report",0,0,0,0,8,"Brine",41,2.51,0.35,20168.1747919714,21887.2696993732,25739.8364562492,"",64.1
41,"Peru","Falchani","Volcano-Sedimentary",-13.998,-70.669,"Evaluation","Evaluation",NA,0.2954,0.2706,FALSE,0,180.357336220899,704.520844612886,884.878180833785,58462.1232960535,64732.0025581781,69385.8878905184,26.5463454250135,6.63658635625338,82730.3782542635,2.5e+08,"Quantile",0,0,0,0,8,"Other (Volcanic Rock)",31.3,2.95,0.295,34282.7417985768,43711.1316664332,50709.4554744638,"",56.6
42,"Chile","Salar de Tambo","Brine",-19.09,-68.9,"No info","No Info",NA,NA,0.0588,FALSE,0,0,877.89778830536,877.89778830536,52307.8229168424,53805.5335205353,56215.7256390558,8.7789778830536,2.1947444707634,56955.8377136237,199701729.182192,"Quantile",0,0,0,0,10,"Brine",27.4,2.38,0.27,23148.9583336038,25453.1284931313,29161.1163677781,"",40.3
43,"Chile","Salar La Isla","Brine",-25.74,-68.64,"No info","No Info",NA,NA,0.0841,FALSE,0,0,853.615,853.615,52318.2203748255,55304.7459357655,55996.0275618879,8.53615,2.1340375,56955.8377136237,199701729.182192,"Quantile",0,0,0,0,10,"Brine",27.4,2.38,0.27,23164.9544228085,27759.6091319469,28823.1193259814,"",40.3
44,"Chile","Salar de Pedernales","Brine",-26.2,-69.12,"No info","No Info",NA,NA,0.05,FALSE,0,0,807.42015322144,807.42015322144,52606.7547008559,53667.4428744906,56418.0137669044,8.0742015322144,2.0185503830536,56955.8377136237,199701729.182192,"Quantile",0,0,0,0,10,"Brine",27.4,2.38,0.27,23608.8533859322,25240.6813453701,29472.3288721607,"",40.3
45,"Argentina","Arizaro","Brine",-24.37,-67.22,"Evaluation","Evaluation",NA,NA,0.0362,FALSE,0,0,774.409312398484,774.409312398484,56996.989650414,58228.1554799659,60621.3802928379,7.74409312398484,1.93602328099621,56955.8377136237,199701729.182192,"Report",0,0,0,0,8,"Brine",41,2.51,0.35,25449.5225390984,27343.6238153322,31025.5081428275,"",64.1
46,"Canada","Exshaw","Brine",52.382,-113.387,"No info","No Info",NA,NA,0.0075,FALSE,0,0,732.701678397401,732.701678397401,45756.8800626769,48379.1425912816,50111.0444002212,7.32701678397401,1.8317541959935,56955.8377136237,199701729.182192,"Quantile",0,0,0,0,10,"Other (Oilfield)",20.4,1.73,0.265,23870.72117371,27438.4252942607,29794.7542860152,"",22.3
47,"Mali","Goulamina","Hard Rock",11.34,-7.96,"Construction","Construction",0.701432396251673,0.688777104965631,0.641044176706827,TRUE,364.651941097724,83.3291195761191,281.322821521605,729.303882195449,50542.8500633067,50900.7883847633,52250.851677104,36.4651941097724,9.11629852744311,19102.9684159287,0,"Report",0,0,18.2136013526207,20.2374600789029,5,"Hard Rock",47.1,4.98,0.2686,25641.0911448,26130.4790603819,27976.3408218539,"Goulamina",80
48,"Canada","Corvette","Hard Rock",53.55,-73.93,"No info","No Info",NA,NA,0.659625167336011,FALSE,0,0,720.013386880857,720.013386880857,53070.3051097064,58723.8631182736,63422.9279552581,36.0006693440428,9.00016733601071,19102.9684159287,126053693.925837,"Quantile",0,0,0,0,10,"Hard Rock",20.4,1.73,0.265,33820.9593329339,41512.8749908485,47906.1604833443,"",22.3
49,"Chile","Salar de Cancosa","Brine",-19.91,-68.59,"No info","No Info",NA,NA,0.0322,FALSE,0,0,669.090021656741,669.090021656741,52515.8635844138,53736.5429837287,56131.1023815029,6.69090021656741,1.67272505414185,56955.8377136237,199701729.182192,"Quantile",0,0,0,0,10,"Brine",27.4,2.38,0.27,23469.0208990982,25346.9892057365,29030.9267407736,"",40.3
50,"Argentina","Pozuelos-Pastos Grandes (Pluspetrol)","Brine",-24.71,-66.82,"Construction","Construction",NA,0.048945875769446,0.0501,TRUE,0,491.425,176.36,667.785,52039.5948532041,54045.5660873887,55699.781942591,6.67785,1.6694625,56955.8377136237,0,"Report",0,0,0,0,5,"Brine",41,2.51,0.35,17822.7613126217,20908.870903675,23453.8183732169,"",64.1
51,"Canada","Beaverhill","Brine",54.363,-116.562,"No info","No Info",NA,NA,NA,FALSE,0,0,594.86396,594.86396,45290.623800717,47381.7565711196,49509.2809425689,5.9486396,1.4871599,56955.8377136237,199701729.182192,"Quantile",0,0,0,0,10,"Other (Oilfield)",20.4,1.73,0.265,23236.3589125401,26081.4375117274,28976.0284932911,"",22.3
52,"United States","Smackover LANXESS","Brine",33.178,-92.72,"No info","No Info",NA,NA,NA,FALSE,0,0,590.32,590.32,44499.6400090404,46620.714554272,49023.2380336957,17.7096,4.4274,56955.8377136237,199701729.182192,"Quantile",0,0,0,0,10,"Other (Oilfield)",16,2.54,0.25,23639.2594564983,26467.3588501404,29670.723489372,"Smackover LANXESS",16.5
53,"Chile","Salar de Maricunga","Brine",-26.92,-69.07,"Evaluation","Evaluation",0.0976,0.0951515363128492,NA,FALSE,90,452,0,542,51706.5246443872,51732.5298491485,55707.4416537138,5.42,1.355,56955.8377136237,199701729.182192,"Report",0,0,0,0,8,"Brine",27.4,2.38,0.27,22223.884068288,22263.892075613,28379.1410057135,"",40.3
54,"United States","Kings Mountain/Bessemer City","Hard Rock",35.22,-81.35,"No info","No Info",NA,0.636398929049532,0.510977242302544,FALSE,0,269.869878885282,247.117477741224,516.987356626506,51852.8579556094,58878.4936783977,62516.0941368855,25.8493678313253,6.46234195783133,19102.9684159287,126053693.925837,"Quantile",0,0,0,0,10,"Hard Rock",16,2.54,0.25,33650.4772741459,43017.9915711969,47868.1255158474,"",16.5
55,"France","Beauvoir","Hard Rock",46.18,2.95,"No info","No Info",NA,NA,NA,FALSE,0,0,510.977242302544,510.977242302544,52067.9458658565,55950.758627084,62604.1650225743,25.5488621151272,6.38721552878179,19102.9684159287,126053693.925837,"Quantile",0,0,0,0,10,"Hard Rock",23.2,2.17,0.25,33748.191871142,38925.2755527787,47796.484080099,"",30.3
56,"Canada","La Corne(sayona)","Hard Rock",48.41,-77.81,"Producing","Open",0.445943775100402,NA,NA,TRUE,130.206291834003,230.636546184739,141.30843373494,502.151271753681,48135.170395,52101.4684428146,58433.4971982645,25.1075635876841,6.27689089692102,19102.9684159287,0,"Report",0.336773023617288,2.20197746211303,5.63591959421379,5.63591959421379,3,"Hard Rock",20.4,1.73,0.265,27106.4903333333,32502.814207911,41117.8193173666,"",22.3
57,"Germany","Zinnwald","Hard Rock",50.7363888888889,13.7652777777778,"Evaluation","Evaluation",NA,0.225759036144578,0.214145917001339,FALSE,0,429,71,500,66994.5722593575,75419.6532114263,75734.0137448759,25,6.25,19102.9684159287,126053693.925837,"Quantile",0,0,0,0,8,"Hard Rock",20.3,1.89,0.3,34872.2460847964,46908.0760163233,47357.1624926799,"Zinnwald",27.3
58,"Australia","Mt. Marion","Hard Rock",-31.08,121.43,"Producing","Open",NA,0.622463186077644,0.641044176706827,TRUE,0,141.250253911822,312.237403384028,453.48765729585,63102.6660062887,67711.7798578406,72918.0604600205,22.6743828647925,5.66859571619813,19102.9684159287,0,"Quantile",13.2368381027199,15.239197815715,22.5436783768552,22.5436783768552,3,"Hard Rock",18.8,1.57,0.3,36916.6657232696,43501.1140826295,50938.6578000293,"",18.1
59,"United States","Great Salt Lake","Brine",40.79,-112.68,"No info","No Info",NA,NA,NA,FALSE,0,0,439.389,439.389,46888.4110681777,48728.5338294207,51154.7407868161,13.18167,3.2954175,56955.8377136237,199701729.182192,"Quantile",0,0,0,0,10,"Brine",16,2.54,0.25,23340.6014242369,25794.0984392276,29029.0410490881,"",16.5
60,"Canada","Clearwater","Brine",51.796,-113.88,"Evaluation","Evaluation",NA,NA,0.00746,FALSE,0,0,413.318895506226,413.318895506226,45209.6929785146,48044.5533215618,49353.6320648423,12.3995668651868,3.0998917162967,56955.8377136237,199701729.182192,"Report",0,0,0,0,8,"Other (Oilfield)",20.4,1.73,0.265,23126.24895036,26983.2017980432,28764.2613127106,"",22.3
61,"Canada","PAK/Spark","Hard Rock",52.59,-93.38,"Evaluation","Evaluation",0.720013386880857,0.725756518578946,0.622463186077644,FALSE,159.122958500669,36.6040870147256,213.543428380187,409.270473895582,49240.1834354144,56160.8115530321,59096.7079338149,20.4635236947791,5.11588092369478,19102.9684159287,126053693.925837,"Regression",0,0,0,0,8,"Hard Rock",20.4,1.73,0.265,28609.9094359379,38025.7300041253,42020.1468487278,"",22.3
62,"Canada","Barraute","Hard Rock",48.44,-77.64,"No info","No Info",NA,NA,NA,FALSE,0,0,370.26788,370.26788,52864.1044769683,59827.8863172602,63197.4457868134,18.513394,4.6283485,19102.9684159287,126053693.925837,"Quantile",0,0,0,0,10,"Hard Rock",20.4,1.73,0.265,33540.4142543787,43014.947370422,47599.3820228754,"",22.3
63,"Zimbabwe","Arcadia","Hard Rock",-17.78,31.41,"Producing","Open",0.552784471218206,0.499568393007426,0.459879518072289,TRUE,234.120481927711,68.4622486271993,55.1942440100162,357.776974564926,52435.32374085,53978.7476535659,55129.8425989891,17.8888487282463,4.47221218206158,19102.9684159287,0,"Report",0.361275582443043,1.1925601750547,4.09543490512869,4.09543490512869,3,"Hard Rock",45.5,3.38,0.25,27329.7649878,29387.6635380878,30922.4567986522,"Arcadia",80
64,"Chile","Salar de Surire","Brine",-18.91,-69.09,"No info","No Info",NA,NA,0.0253,FALSE,0,0,350.475824038982,350.475824038982,52739.574636212,53994.9995685351,56509.8249689806,3.50475824038982,0.876189560097456,56955.8377136237,199701729.182192,"Quantile",0,0,0,0,10,"Brine",27.4,2.38,0.27,23813.1917480185,25744.6147208233,29613.5768753547,"",40.3
65,"Chile","Laguna Verde","Brine",-26.88,-68.47,"Evaluation","Evaluation",NA,0.0196272727272727,0.0208,FALSE,0,206.659447753113,131.510557661072,338.170005414185,52677.1492470731,53601.0797940636,56385.8871505126,10.1451001624256,2.53627504060639,56955.8377136237,199701729.182192,"Quantile",0,0,0,0,8,"Brine",27.4,2.38,0.27,23717.1526878047,25138.5842985593,29422.9033084809,"",40.3
66,"China","Zhabuye","Brine",30.9,84.15,"Producing","Open",NA,NA,NA,TRUE,0,0,335.840389821332,335.840389821332,45964.1294848206,47103.4011876636,50275.6280894527,3.35840389821332,0.83960097455333,56955.8377136237,0,"Report",1.38807832348637,2.02684002986948,2.02684002986948,2.02684002986948,3,"Brine",22.1,2.94,0.25,18701.5059797608,20220.5349168848,24450.170785937,"",19
67,"China","Dahongliu","Hard Rock",35.48,79.17,"Producing","Open",NA,NA,NA,TRUE,0,0,316.348797858099,316.348797858099,56924.8172933396,63119.6604979216,67430.6678697727,15.817439892905,3.95435997322624,19102.9684159287,0,"Quantile",0,0,0,0,3,"Hard Rock",22.1,2.94,0.25,33315.7563911195,41575.5473305621,47323.5571596969,"",19
68,"Spain","San Jose/Valdeflores","Hard Rock",39.45209,-6.347678,"Evaluation","Evaluation",0.38091030789826,0.292650602409639,0.274069611780455,FALSE,141.698634538153,29.4200751392667,140.921290322581,312.04,54150.9429970221,56710.7359122543,57249.6396838821,15.602,3.9005,19102.9684159287,126053693.925837,"Report",0,0,0,0,8,"Hard Rock",22.1,2.23,0.25,36714.5906626962,40127.6478830057,40846.1862451762,"",37.2
69,"Argentina","Hombre Muerto North (Lithium South)","Brine",-25.32,-66.9,"Construction","Construction",NA,0.0743416274377942,0,TRUE,0,297.4,0,297.4,50392.2092916283,51975.0310655356,52764.6156748355,2.974,0.7435,56955.8377136237,0,"Report",0,0,0,0,5,"Brine",41,2.51,0.35,15288.3219871205,17723.4324085163,18938.1779612854,"",64.1
70,"United States","Green River","Brine",38.84,-110.23,"No info","No Info",NA,NA,NA,FALSE,0,0,295,295,46852.5875393735,48721.143065379,51136.0955017266,2.95,0.7375,56955.8377136237,199701729.182192,"Quantile",0,0,0,0,10,"Brine",16,2.54,0.25,23292.8367191647,25784.244087172,29004.1806689688,"",16.5
71,"United States","Silver Peak","Brine",37.762686,-117.622147,"Producing","Open",NA,NA,NA,TRUE,0,0,293.28,293.28,46546.965807403,48675.2858738698,51165.2085312906,3.75727972947586,0.939319932368965,56955.8377136237,0,"Quantile",0,0,1.87863986473793,3.75727972947586,3,"Brine",16,2.54,0.25,23793.7997432039,26631.5598318265,29951.4567083874,"",16.5
72,"Russia","Kolmorzerskoe","Hard Rock",67.959,37.118,"No info","No Info",NA,NA,NA,FALSE,0,0,288.208512,288.208512,57967.0611854892,65697.0938691623,68482.3386542558,14.4104256,3.6026064,19102.9684159287,126053693.925837,"Quantile",0,0,0,0,10,"Hard Rock",21.8,3.42,0.25,33285.9482473189,43592.6584922164,47306.3182056743,"",80
73,"United States","Paradox","Brine",38.57,-109.72,"No info","No Info",NA,0.0123,0.0109,FALSE,0,68.9032932995411,213.656533446534,282.559826746075,44403.9847769865,47370.8327208939,47387.9897683566,8.47679480238224,2.11919870059556,56955.8377136237,199701729.182192,"Report",0,0,0,0,10,"Brine",16,2.54,0.25,20028.0330359819,23983.8302945252,24006.7063578088,"",16.5
74,"Chile","Salar de Aguilar","Brine",-25.81,-68.9,"No info","No Info",NA,NA,0.0284,FALSE,0,0,282.296,282.296,52414.6780277585,55118.4048384927,56390.7465475749,2.82296,0.70574,56955.8377136237,199701729.182192,"Quantile",0,0,0,0,10,"Brine",27.4,2.38,0.27,23313.3508119361,27472.930520758,29430.3793039614,"",40.3
75,"Zimbabwe","Kamativi","Hard Rock",-18.33,27.07,"Evaluation","Evaluation",NA,NA,NA,FALSE,0,0,280.20272,280.20272,57701.0204608333,66912.3951116165,68215.977062367,14.010136,3.502534,19102.9684159287,126053693.925837,"Quantile",0,0,0,0,8,"Hard Rock",45.5,3.38,0.25,34350.6939477778,46632.5268154886,48370.636083156,"",80
76,"Namibia","Uis","Hard Rock",-21.22,14.88,"No info","No Info",NA,0.336592595873691,0.339103078982597,FALSE,0,126.350736278447,146.325301204819,272.676037483266,59262.384428419,64520.5710206015,68820.6788245626,13.6338018741633,3.40845046854083,19102.9684159287,126053693.925837,"Quantile",0,0,0,0,10,"Hard Rock",38.6,1.94,0.32,33920.5653359103,41653.1926773551,47976.8806243568,"",80
77,"Canada","James Bay","Hard Rock",52.29,-77.1,"Evaluation","Evaluation",0.603882195448461,0.650334672021419,0,FALSE,224.6906291834,37.3942436412316,0,262.084872824632,47631.8007850232,53454.3122816,71938.7116484344,13.1042436412316,3.2760609103079,19102.9684159287,126053693.925837,"Report",0,0,0,0,8,"Hard Rock",20.4,1.73,0.265,26421.63372112,34343.418070204,59492.2607461692,"",22.3
78,"Canada","Whabouchi","Hard Rock",51.69,-75.84,"Evaluation","Evaluation",0.603882195448461,NA,NA,FALSE,221.020883534137,0,39.2974098650635,260.3182933992,52540.9690366348,60775.2267000582,62874.4656255537,13.01591466996,3.25397866749,19102.9684159287,126053693.925837,"Regression",0,0,0,0,8,"Hard Rock",20.4,1.73,0.265,33100.7741995032,44303.8458504193,47159.9532320458,"",22.3
79,"China","Yichun 414","Hard Rock",27.59,114.39,"Producing","Open",NA,NA,NA,TRUE,0,0,255.989564658635,255.989564658635,58998.3025503968,65281.5223963289,69559.9488499393,12.7994782329317,3.19986955823293,19102.9684159287,0,"Quantile",2.71702451039222,3.96733667446652,3.96733667446652,3.96733667446652,3,"Hard Rock",22.1,2.94,0.25,36080.4034005291,44458.0298617719,50162.5984665857,"",19
80,"United States","Rhyolite Ridge","Volcano-Sedimentary",37.831711,-117.895265,"Evaluation","Evaluation",0.1797,0.159573885848319,0.16,FALSE,108.1794,95.2111020352781,31.0094979647218,234.4,39528.85765594,47139.2384814844,51810.0988523282,7.032,1.758,82730.3782542635,2.5e+08,"Report",0,0,0,0,8,"Volcano-Sedimentary",16,2.54,0.25,14436.32220792,24583.4966419792,30811.310469771,"",16.5
81,"Ethiopia","Kenticha","Hard Rock",5.45,39.02,"No info","No Info",NA,NA,NA,FALSE,0,0,228.75190648,228.75190648,61669.0417311569,66895.4764528216,71516.3191676327,11.437595324,2.859398831,19102.9684159287,126053693.925837,"Quantile",0,0,0,0,10,"Hard Rock",52,4.54,0.3,34868.6310445099,42334.9663611737,48936.1702394752,"",80
82,"United States","Smackover SWA","Brine",33.243,-93.455,"No info","No Info",NA,NA,NA,FALSE,0,0,224.66,224.66,44565.9451713035,46176.153999681,49163.8022941783,2.2466,0.56165,56955.8377136237,199701729.182192,"Quantile",0,0,0,0,10,"Other (Oilfield)",16,2.54,0.25,23727.6663395157,25874.6114440191,29858.1425033488,"",16.5
83,"China","Huaqiao Dagang","Hard Rock",28.36,114.55,"Producing","Open",0.236907630522088,NA,NA,TRUE,113.111785100402,104.652287429719,0,217.76407253012,67406.930139277,73709.5180287797,77913.8207620774,10.888203626506,2.72205090662651,19102.9684159287,0,"Regression",0,0,0,0,3,"Hard Rock",22.1,2.94,0.25,47291.9068523693,55695.3573717062,61301.0943494365,"",19
84,"United States","Plumbago North","Hard Rock",44.54472,-70.74361,"No info","No Info",NA,NA,NA,FALSE,0,0,217.584432,217.584432,54756.1130867057,59529.0076733657,65265.7906861703,10.8792216,2.7198054,19102.9684159287,126053693.925837,"Quantile",0,0,0,0,10,"Hard Rock",16,2.54,0.25,34398.657448941,40762.5168978209,48411.5609148938,"",16.5
85,"Ghana","Ewoyaa","Hard Rock",5.23,-1.03,"Evaluation","Evaluation",0.566720214190094,0.587623828647925,0.518409638554217,FALSE,145.080374832664,17.0440172743705,42.8471607711448,204.971552878179,50442.8928702852,54387.4494486293,56394.8659979429,10.248577643909,2.56214441097724,19102.9684159287,126053693.925837,"Report",0,0,0,0,8,"Hard Rock",40,2.57,0.25,24673.1904937136,29932.599264839,32609.1546639239,"",60.7
86,"China","Jiajika","Hard Rock",30.33,101.316,"Producing","Open",NA,NA,NA,TRUE,0,0,204.147696,204.147696,58245.2642944117,62913.432787162,68767.4486771292,10.2073848,2.5518462,19102.9684159287,0,"Quantile",1.69290032332398,2.47193410042882,2.47193410042882,2.47193410042882,3,"Hard Rock",22.1,2.94,0.25,35076.3523925489,41300.5770495493,49105.9315695057,"",19
87,"Austria","Wolfsberg/Koralpe","Hard Rock",46.84,14.99,"Evaluation","Evaluation",NA,0.529558232931727,0.362329317269076,FALSE,0,36.2370608359363,167.596406366206,203.833467202142,52005.0165976925,58224.9940850296,63139.7964822754,10.1916733601071,2.54791834002677,19102.9684159287,126053693.925837,"Quantile",0,0,0,0,8,"Hard Rock",21.3,1.86,0.24,33407.9165759113,41592.0974803021,48058.942739836,"",27.9
88,"Brazil","Grota do Cirilo (Barreiro)","Hard Rock",-16.74,-41.9,"Evaluation","Evaluation",0.631753681392236,0.642828268208516,0.645689424364123,FALSE,137.127937195452,23.9537087168382,24.7051976177585,185.786843530049,57026.108096,61651.9438310627,66290.9102961539,9.28934217650244,2.32233554412561,19102.9684159287,126053693.925837,"Report",0,0,0,0,8,"Hard Rock",40.9,2.83,0.34,27930.8456,34939.6876228223,41968.4246911422,"",56.2
89,"Brazil","Grota do Cirilo (NDC)","Hard Rock",-16.74,-41.9,"No info","No Info",NA,0.690987364471499,0.687496653279786,FALSE,0,161.006497022198,24.2355170546833,185.242014076881,60906.8262342569,65813.024636876,65902.1166863091,9.26210070384407,2.31552517596102,19102.9684159287,126053693.925837,"Quantile",0,0,0,0,10,"Hard Rock",40.9,2.83,0.34,33810.7215670559,41244.3555104181,41379.3434641047,"",56.2
90,"Canada","Rocky","Brine",52.153,-114.74,"No info","No Info",NA,NA,0.00529,FALSE,0,0,174.721169463996,174.721169463996,45381.2653466191,47447.7113076927,49518.5744464173,1.74721169463996,0.436802923659989,56955.8377136237,199701729.182192,"Quantile",0,0,0,0,10,"Other (Oilfield)",20.4,1.73,0.265,23359.6807436995,26171.171847201,28988.672716214,"",22.3
91,"Chile","Francisco Basin","Brine",-27.49,-69.2,"Evaluation","Evaluation",NA,0.0221,0.0195,FALSE,0,82.6637791012453,90.1786681104494,172.842447211695,52327.6683518267,55280.838509847,55308.4531862394,5.18527341635084,1.29631835408771,56955.8377136237,199701729.182192,"Quantile",0,0,0,0,8,"Brine",27.4,2.38,0.27,23179.489772041,27722.8284766877,27765.3125942145,"",40.3
92,"Argentina","Candelas","Brine",-25.53,-66.88,"Evaluation","Evaluation",NA,0.0672,0,FALSE,0,167,0,167,55948.52183905,57807.0841304728,58520.8173049228,1.67,0.4175,56955.8377136237,199701729.182192,"Report",0,0,0,0,8,"Brine",41,2.51,0.35,23836.495137,26695.8217391889,27793.8727768043,"",64.1
93,"Zimbabwe","Bikita","Hard Rock",-20.09,31.6,"Producing","Open",NA,NA,NA,TRUE,0,0,159.863318072289,159.863318072289,57485.4242936011,62898.4059047309,67997.118524317,7.99316590361446,1.99829147590361,19102.9684159287,0,"Quantile",0.563457330415755,1.85995623632385,6.38737554010896,6.38737554010896,3,"Hard Rock",45.5,3.38,0.25,34063.2323914681,41280.5412063079,48078.8246990894,"",80
94,"Mali","Bougouni","Hard Rock",11.1,-7.43,"Construction","Construction",NA,0.520267737617135,0.473815261044177,TRUE,0,59.9236947791165,96.203078982597,156.126773761714,54782.7689628328,61835.0783905823,63148.9257858109,7.80633868808568,1.95158467202142,19102.9684159287,0,"Report",0,0,0,0,5,"Hard Rock",47.1,4.98,0.2686,31438.0817101898,41080.2876546107,42876.6335600368,"",80
95,"Brazil","Grota de Cirilo ( Xuxa)","Hard Rock",-16.74,-41.9,"Producing","Open",0.720013386880857,0.720059358742512,0.733949129852744,TRUE,84.8243096913914,40.4676773145642,27.9178126691933,153.209799675149,56505.689032,63173.226283149,65749.4846061329,19.777569040015,4.94439226000376,19102.9684159287,0,"Report",2.08508531772353,3.88475971743168,17.9633665226376,19.777569040015,3,"Hard Rock",40.9,2.83,0.34,27142.3318666667,37244.6610350743,41148.082736565,"Grota de Cirilo ( Xuxa)",56.2
96,"Australia","Manna","Hard Rock",-30.87,122.53,"No info","No Info",NA,0.478460508701473,0.450589022757697,FALSE,0,87.8023597419983,64.6964755993672,152.498835341365,60931.4700438648,68176.7959501617,68931.2612304406,7.62494176706827,1.90623544176707,19102.9684159287,126053693.925837,"Quantile",0,0,0,0,10,"Hard Rock",18.8,1.57,0.3,33814.9572055211,44165.4227859452,45243.2303292009,"",18.1
97,"Namibia","Karibib","Hard Rock",-22.1,15.97,"Evaluation","Evaluation",NA,NA,NA,FALSE,0,0,150,150,61317.4039796801,70280.5388967145,70871.1619329219,7.5,1.875,19102.9684159287,126053693.925837,"Quantile",0,0,0,0,8,"Hard Rock",38.6,1.94,0.32,36942.6529112943,50123.733671639,50992.2969601792,"",80
98,"Chile","Salar de Pajonales","Brine",-25.13,-68.8,"No info","No Info",NA,NA,0.0127,FALSE,0,0,149.974,149.974,52432.2495588602,53536.6614110339,56107.2418385223,1.49974,0.374935,56955.8377136237,199701729.182192,"Quantile",0,0,0,0,10,"Brine",27.4,2.38,0.27,23340.383936708,25039.4790938983,28994.2182131112,"",40.3
99,"United States","Carolina Lithium","Hard Rock",35.368879,-81.314732,"Evaluation","Evaluation",NA,0.538848728246319,0.49239625167336,FALSE,0,71.5118394725857,72.0263131378561,143.538152610442,41998.73615,50473.7205627696,51820.9799918392,7.17690763052209,1.79422690763052,19102.9684159287,126053693.925837,"Report",0,0,0,0,8,"Hard Rock",16,2.54,0.25,20511.6482,31811.6274170262,33607.9733224523,"Carolina Lithium",16.5
100,"Chile","Salar de Huasco","Brine",-20.3,-68.85,"No info","No Info",NA,NA,0.0075,FALSE,0,0,141.001674607472,141.001674607472,53109.0398023677,55923.1422501646,56731.9100345474,1.41001674607472,0.352504186518679,56955.8377136237,199701729.182192,"Quantile",0,0,0,0,10,"Brine",27.4,2.38,0.27,24381.5996959502,28710.9880771763,29955.2462069959,"",40.3
101,"Canada","Rose","Hard Rock",52.02,-76.16,"Evaluation","Evaluation",0.404136546184739,0.432008032128514,0.362329317269076,FALSE,90.0248995983936,42.0011537426471,8.63785228144922,140.66390562249,53456.562849,58133.3038947314,60113.7752554636,7.0331952811245,1.75829882028112,19102.9684159287,126053693.925837,"Report",0,0,0,0,8,"Hard Rock",20.4,1.73,0.265,34346.4800666667,40709.3930540563,43403.9119121954,"",22.3
102,"Russia","Zavantinskoe","Hard Rock",51.619,115.61,"No info","No Info",NA,NA,NA,FALSE,0,0,140.10136,140.10136,59928.7138447936,64651.0465628831,70481.0301401547,7.005068,1.751267,19102.9684159287,126053693.925837,"Quantile",0,0,0,0,10,"Hard Rock",21.8,3.42,0.25,35901.4851263915,42197.9287505108,49971.240186873,"",80
103,"Russia","Ulug-Tanzek","Hard Rock",50.65,96.32,"No info","No Info",NA,NA,NA,FALSE,0,0,139.100636,139.100636,58096.7349720043,64083.5105271492,68607.0731159317,6.9550318,1.73875795,19102.9684159287,126053693.925837,"Quantile",0,0,0,0,10,"Hard Rock",21.8,3.42,0.25,33458.846629339,41441.2140361989,47472.6308212423,"",80
104,"Russia","Urikskoe","Hard Rock",52.57,101.32,"No info","No Info",NA,NA,NA,FALSE,0,0,139.100636,139.100636,58168.4486534757,64413.1551324355,68684.9278888057,6.9550318,1.73875795,19102.9684159287,126053693.925837,"Quantile",0,0,0,0,10,"Hard Rock",21.8,3.42,0.25,33554.464871301,41880.7401765806,47576.4371850742,"",80
105,"Russia","Goltsovoe/Goltsovoya","Hard Rock",52.979,101.18,"No info","No Info",NA,NA,NA,FALSE,0,0,139.100636,139.100636,60115.7641753435,66295.0905236915,70655.7591149566,6.9550318,1.73875795,19102.9684159287,126053693.925837,"Quantile",0,0,0,0,10,"Hard Rock",21.8,3.42,0.25,36150.8855671246,44389.987364922,50204.2121532755,"",80
106,"Russia","Polmostundrovskoe","Hard Rock",68.276,35.907,"No info","No Info",NA,NA,NA,FALSE,0,0,139.100636,139.100636,58782.3120404993,64373.7706898113,69339.3535349286,6.9550318,1.73875795,19102.9684159287,126053693.925837,"Quantile",0,0,0,0,10,"Hard Rock",21.8,3.42,0.25,34372.9493873324,41828.2275864151,48449.0047132382,"",80
107,"Portugal","Mina Do Barroso","Hard Rock",41.630187,-7.80187,"Evaluation","Evaluation",NA,0.481901972221873,0.510977242302544,FALSE,0,88.9100401606426,47.3815261044177,136.29156626506,52325.9331706314,59266.7936656303,63406.0969477881,6.81457831325301,1.70364457831325,19102.9684159287,126053693.925837,"Quantile",0,0,0,0,8,"Hard Rock",23.5,1.64,0.21,33893.0799628245,42678.9793235826,47918.6037313774,"",34.9
108,"Canada","Yellowknife","Hard Rock",62.53,-114.15,"No info","No Info",NA,NA,NA,FALSE,0,0,130.09412,130.09412,54414.234492323,59476.6736540441,64717.3919887201,6.504706,1.6261765,19102.9684159287,126053693.925837,"Quantile",0,0,0,0,10,"Hard Rock",20.4,1.73,0.265,35649.4346834327,42537.1070123048,49667.3360390749,"",22.3
109,"Brazil","Mibra/Volta Grande","Hard Rock",-21.09,-44.59,"Producing","Open",NA,0.491860328131342,0.478460508701473,TRUE,0,99.7312267818709,20.2017282382094,119.93295502008,61720.8772914399,68149.6545880938,68491.6529114943,5.99664775100402,1.499161937751,19102.9684159287,0,"Quantile",0.420619444812948,0.783663604404351,3.62370843509299,3.62370843509299,3,"Hard Rock",40.9,2.83,0.34,35044.1322597575,44784.7039213542,45302.8831992338,"Mibra/Volta Grande",56.2
110,"Australia","Bald Hill","Hard Rock",-31.51,122.18,"Producing","Open",0.469170013386881,0.469170013386881,0.418072289156627,TRUE,53.0022757697457,15.3757697456493,50.1686746987952,118.54672021419,64078.1241276672,70421.2769454389,71804.463292617,5.9273360107095,1.48183400267738,19102.9684159287,0,"Regression",0,0,0,0,3,"Hard Rock",18.8,1.57,0.3,38310.1773252388,47371.8242077698,49347.8047037385,"",18.1
111,"Argentina","Sal de Puna","Brine",-24.56,-66.63,"Evaluation","Evaluation",NA,NA,0.046,FALSE,0,0,106,106,55756.2666504662,57381.3997388143,59657.365364766,1.06,0.265,56955.8377136237,199701729.182192,"Quantile",0,0,0,0,8,"Brine",41,2.51,0.35,23540.7179237942,26040.9226750989,29542.4082534861,"",64.1
112,"Canada","Moblan","Hard Rock",50.73,-74.88,"No info","No Info",0.650334672021419,0.631593500438536,0.617817938420348,FALSE,69.5347121820616,15.4290534687771,14.6489251122136,99.6126907630522,51220.6547961467,51753.3333000678,52144.8747644884,4.98063453815261,1.24515863453815,19102.9684159287,126053693.925837,"Regression",0,0,0,0,10,"Hard Rock",20.4,1.73,0.265,31304.4282940771,32029.1609524731,32561.8704278753,"",22.3
113,"Zimbabwe","Zulu","Hard Rock",-20.03,29.4,"Producing","Open",NA,NA,0.49239625167336,TRUE,0,0,99.0343574297189,99.0343574297189,59599.8397076917,63571.5792229948,70108.1042936943,4.95171787148594,1.23792946787149,19102.9684159287,0,"Quantile",0.105267087141202,0.347483588621444,1.19331204208153,2.34153672740936,3,"Hard Rock",45.5,3.38,0.25,36882.452943589,42178.1056306597,50893.4723915924,"",80
114,"Chile","Salar de Ascotan","Brine",-21.48,-68.39,"No info","No Info",NA,NA,0.029,FALSE,0,0,96.9894120194911,96.9894120194911,52782.2421593641,54850.3445444755,56404.814902019,0.969894120194911,0.242473530048728,56955.8377136237,199701729.182192,"Quantile",0,0,0,0,10,"Brine",27.4,2.38,0.27,23878.8340913293,27060.5300684239,29452.0229261831,"",40.3
115,"Australia","Marble Bar","Hard Rock",-21.1,119.85,"No info","No Info",NA,0.450589022757697,0.469170013386881,FALSE,0,18.6098943923844,65.1346303733452,83.7445247657296,61401.3278474527,65542.1831100903,71231.9256393351,4.18722623828648,1.04680655957162,19102.9684159287,126053693.925837,"Quantile",0,0,0,0,10,"Hard Rock",18.8,1.57,0.3,34486.1826392181,40401.6901572719,48529.8937704787,"",18.1
116,"China","Baishicun Huashan","Hard Rock",28.32,114.56,"Producing","Open",NA,NA,NA,TRUE,47.3815261044177,34.155019645447,0,81.5365457498647,54619.982826945,58762.4366553375,65179.9524814241,4.07682728749323,1.01920682187331,19102.9684159287,0,"Report",0,0,0,0,3,"Hard Rock",22.1,2.94,0.25,30242.64376926,35765.91554045,44322.6033085655,"",19
117,"Canada","Separation Rapids","Hard Rock",50.26,-94.56,"Evaluation","Evaluation",NA,0.625836520685918,0.641044176706827,FALSE,0,63.5187575312888,17.7071139546549,81.2258714859438,54877.4673924243,58812.1962966455,65189.7881040431,4.06129357429719,1.0153233935743,19102.9684159287,126053693.925837,"Quantile",0,0,0,0,8,"Hard Rock",20.4,1.73,0.265,36279.6835271078,41633.0561859122,50310.0518422355,"",22.3
118,"Chile","Salar Las Parinas","Brine",-25.83,-68.51,"No info","No Info",NA,NA,0.0306,FALSE,0,0,80.432,80.432,52440.0779690752,54433.5938403032,56268.8274128985,0.80432,0.20108,56955.8377136237,199701729.182192,"Quantile",0,0,0,0,10,"Brine",27.4,2.38,0.27,23352.4276447311,26419.375138928,29242.8114044592,"",40.3
119,"Canada","Authier/La Motte/Colombe","Hard Rock",48.36,-78.19,"Evaluation","Evaluation",0.445943775100402,0.468818199398811,0.464524765729585,FALSE,50.3080321285141,15.9331994645248,13.9357429718875,80.1769745649264,57030.0374542946,61584.2085700602,61706.2404192161,4.00884872824632,1.00221218206158,19102.9684159287,126053693.925837,"Regression",0,0,0,0,8,"Hard Rock",20.4,1.73,0.265,39208.3502779519,45404.5014558642,45570.531182607,"",22.3
120,"Brazil","Colina","Hard Rock",-16.13,-42.12,"No info","No Info",NA,0.562074966532798,0.562074966532798,FALSE,0,11.6595716198126,62.8037483266399,74.4633199464525,61383.8601137781,67022.191462151,70634.9363972497,3.72316599732262,0.930791499330656,19102.9684159287,126053693.925837,"Quantile",0,0,0,0,10,"Hard Rock",40.9,2.83,0.34,34533.500172391,43076.4264578046,48550.2824200754,"",56.2
121,"Australia","Mt. Cattlin","Hard Rock",-33.56,120.03,"Producing","Open",0.557429718875502,0.620140562248996,0.603882195448461,TRUE,38.7413654618474,24.4340026773762,7.89692101740295,71.0722891566265,49191.2843397731,53893.8044951425,54333.9092419719,5.63591959421379,1.40897989855345,19102.9684159287,0,"Report",3.30920952567997,3.80979945392875,5.63591959421379,3.80979945392875,3,"Hard Rock",18.8,1.57,0.3,17043.263342533,23761.149278775,24389.8703456741,"",18.1
122,"Canada","Root","Hard Rock",50.92,-91.57,"No info","No Info",NA,NA,0.562074966532798,FALSE,0,0,70.8214457831325,70.8214457831325,53247.6294980493,58211.7005338232,63587.6179321536,3.54107228915663,0.885268072289156,19102.9684159287,126053693.925837,"Quantile",0,0,0,0,10,"Hard Rock",20.4,1.73,0.265,34062.2170041487,40816.0551480588,48130.2284791206,"",22.3
123,"Australia","Buldania","Hard Rock",-32.07,122.07,"No info","No Info",NA,0.464524765729585,0.464524765729585,FALSE,0,41.8072289156626,27.8714859437751,69.6787148594377,62582.2728457971,71647.6042961345,72409.355566304,3.48393574297189,0.870983935742972,19102.9684159287,126053693.925837,"Quantile",0,0,0,0,10,"Hard Rock",18.8,1.57,0.3,36173.2469225673,49123.7204230492,50211.9365232915,"",18.1
124,"Canada","Georgia Lake","Hard Rock",49.46,-88.05,"Evaluation","Evaluation",NA,0.46819936462267,0.538848728246319,FALSE,0,31.1622793860628,35.8133658615945,66.9756452476573,48272.9919318841,52395.8322936855,58588.5282789844,3.34878226238286,0.837195565595716,19102.9684159287,126053693.925837,"Report",0,0,0,0,8,"Hard Rock",20.4,1.73,0.265,27294.0026284138,32903.3092431096,41328.7459578019,"",22.3
125,"Finland","Ostrobothnia (All Projects)","Hard Rock",63.39162,23.50256,"Construction","Construction",0.4,0.5,0.4,TRUE,36.3720628045479,18.7120736329182,10.7275040606389,65.811640498105,47423.4598970882,54238.5817201287,57332.2310373697,3.29058202490525,0.822645506226313,19102.9684159287,0,"Report",0,0,1.23990231072703,2.47980462145407,5,"Hard Rock",19.8,1.61,0.2,31865.8748713602,40384.7771501608,44251.8387967121,"Ostrobothnia",19.7
126,"Australia","Dome North","Hard Rock",-31.77,121.61,"No info","No Info",NA,0.603882195448461,0.515622489959839,FALSE,0,32.5167336010709,30.6586345381526,63.1753681392236,61144.4008706668,64985.974773998,67375.1148282147,3.15876840696118,0.789692101740294,19102.9684159287,126053693.925837,"Quantile",0,0,0,0,10,"Hard Rock",18.8,1.57,0.3,34119.1441009525,39607.1068199971,43020.1640403067,"",18.1
127,"United States","Big Sandy","Volcano-Sedimentary",34.6809492,-113.557467,"No info","No Info",NA,0.194,0.178,FALSE,0,28.4,31.9,60.3,53667.2666399412,58877.7116491045,65944.4522662618,1.809,0.45225,82730.3782542635,2.5e+08,"Quantile",0,0,0,0,10,"Volcano-Sedimentary",16,2.54,0.25,32521.0221865883,39468.282198806,48890.6030216824,"",16.5
128,"Chile","Salar de Cotacotani","Brine",-18.21,-69.34,"No info","No Info",NA,NA,0.0073,FALSE,0,0,60.2994694098538,60.2994694098538,52983.3472753972,54042.6068480882,57103.2963408569,0.602994694098538,0.150748673524635,56955.8377136237,199701729.182192,"Quantile",0,0,0,0,10,"Brine",27.4,2.38,0.27,24188.2265775342,25817.8566893665,30526.6097551645,"",40.3
129,"United Kingdom","Trevalour","Hard Rock",50.38,-4.87,"No info","No Info",NA,0,0.1114859437751,FALSE,0,57.6382329317269,0,57.6382329317269,54551.8887359341,59322.0184016123,65072.2919992258,2.88191164658635,0.720477911646586,19102.9684159287,126053693.925837,"Quantile",0,0,0,0,10,"Hard Rock",16.5,2,0.25,34238.7008313896,40598.8737189605,48265.9051824451,"",29.2
130,"China","Lijiagou","Hard Rock",31.14,105.11,"No info","No Info",NA,NA,NA,FALSE,0,0,53.038372,53.038372,60361.1021556424,64208.8393759077,70869.1277840359,2.6519186,0.66297965,19102.9684159287,126053693.925837,"Quantile",0,0,0,0,10,"Hard Rock",22.1,2.94,0.25,37897.4695408565,43027.7858345436,51908.1703787145,"",19
131,"Canada","Thompson Brothers","Hard Rock",54.85,-99.72,"No info","No Info",NA,0.464524765729585,0.455234270414993,FALSE,0,42.3600133868809,8.94953413654618,51.309547523427,54066.1711427789,58133.8207150293,58397.8835631269,2.56547737617135,0.641369344042838,19102.9684159287,126053693.925837,"Quantile",0,0,0,0,10,"Hard Rock",20.4,1.73,0.265,35175.8791058216,40710.0962109242,41069.3653920094,"",22.3
132,"Russia","Orlovka","Hard Rock",51.057,114.834,"No info","No Info",NA,NA,NA,FALSE,0,0,50.0362,50.0362,58327.3302538501,62868.5772463054,68832.8700181363,2.50181,0.6254525,19102.9684159287,126053693.925837,"Quantile",0,0,0,0,10,"Hard Rock",21.8,3.42,0.25,33766.3070051334,39821.3029950739,47773.6933575151,"",80
133,"Portugal","Sepeda/Romano","Hard Rock",41.730333,-7.726452,"No info","No Info",NA,NA,0.464524765729585,FALSE,0,0,47.8460508701473,47.8460508701473,53571.6147343085,58293.079304482,64638.3174255558,2.39230254350736,0.598075635876841,19102.9684159287,126053693.925837,"Quantile",0,0,0,0,10,"Hard Rock",23.5,1.64,0.21,35469.892068745,41446.4294993443,49478.3764880453,"",34.9
134,"Canada","Seymour","Hard Rock",50.41,-88.45,"Evaluation","Evaluation",NA,0.557429718875502,0.325167336010709,FALSE,0,32.8353975903614,14.072313253012,46.9077108433735,52935.4694374934,60202.6801309409,66804.2513333817,2.34538554216867,0.586346385542169,19102.9684159287,126053693.925837,"Quantile",0,0,0,0,8,"Hard Rock",20.4,1.73,0.265,33637.5094387665,43524.8709264502,52506.6004535806,"",22.3
135,"China","Shuinanduan","Hard Rock",28.36,114.59,"Producing","Open",NA,0.17540407866468,0.171874163319946,TRUE,0,31.7600227576975,14.8564310575636,46.616453815261,57049.092143282,63295.7979432138,63398.1759450528,2.33082269076305,0.582705672690763,19102.9684159287,0,"Quantile",0,0,0,0,3,"Hard Rock",22.1,2.94,0.25,33481.4561910427,41810.3972576184,41946.9012600703,"",19
136,"Argentina","Salar del Rincon (Argosy)","Brine",-24.12,-66.97,"Producing","Open",NA,NA,NA,TRUE,0,0,46.0512398484028,46.0512398484028,57209.17538125,58697.2726624588,61210.0801322458,1.87863986473793,0.469659966184482,56955.8377136237,0,"Report",0.336715328467153,0.490510948905109,1.31504790531655,1.87863986473793,3,"Brine",41,2.51,0.35,25775.962125,28065.3425576289,31931.200203455,"",64.1
137,"Canada","Fox Creek","Brine",54.436109,-116.872234,"No info","No Info",NA,NA,0.0072,FALSE,0,0,43.415,43.415,45222.5955194128,46782.825605352,49502.8110909355,0.43415,0.1085375,56955.8377136237,199701729.182192,"Quantile",0,0,0,0,10,"Other (Oilfield)",20.4,1.73,0.265,23143.8034277726,25266.5654494585,28967.2259740619,"",22.3
138,"United States","Fort Cady","Volcano-Sedimentary",34.78,-116.43,"Construction","Construction",0.0367,0.0366883256528418,0.0322,TRUE,15.05067,5.10429,21.2764,41.43136,51961.8397956644,57202.3421258134,64328.8891758269,1.2429408,0.3107352,82730.3782542635,0,"Quantile",0,0,0,0.937253428517753,5,"Volcano-Sedimentary",16,2.54,0.25,30956.8530608859,37944.1895010845,47446.2522344359,"",16.5
139,"United States","Clayton Valley (Schlumberger)","Brine",37.7,-117.53,"Evaluation","Evaluation",NA,NA,0.0123,FALSE,0,0,40.9,40.9,45593.3791234938,47875.7493714105,49821.2355232625,0.409,0.10225,56955.8377136237,199701729.182192,"Report",0,0,0,0,8,"Brine",16,2.54,0.25,22522.3508313251,25565.5111618807,28159.4926976834,"",16.5
140,"Brazil","Grota do Cirilo (Murial)","Hard Rock",-16.74,-41.9,"No info","No Info",NA,0.529718516237474,0.49239625167336,FALSE,0,29.4020032485111,3.2877639415268,32.6897671900379,61237.7907262482,65763.4615067385,66716.0229926034,1.6344883595019,0.408622089875474,19102.9684159287,126053693.925837,"Quantile",0,0,0,0,10,"Hard Rock",40.9,2.83,0.34,34312.1829185578,41169.2598586947,42612.5348372779,"",56.2
141,"Canada","Wekuso Lake","Hard Rock",54.87,-99.65,"No info","No Info",NA,NA,NA,FALSE,0,0,28.020272,28.020272,52698.4842893074,58193.0984092017,62994.3220814135,1.4010136,0.3502534,19102.9684159287,126053693.925837,"Quantile",0,0,0,0,10,"Hard Rock",20.4,1.73,0.265,33315.0806657244,40790.7461349683,47323.0232400184,"",22.3
142,"Canada","Gods Lake","Hard Rock",54.86,-94.19,"No info","No Info",NA,NA,NA,FALSE,0,0,25.0181,25.0181,55453.5290586971,60080.4350159836,65756.0235825803,1.250905,0.31272625,19102.9684159287,126053693.925837,"Quantile",0,0,0,0,10,"Hard Rock",20.4,1.73,0.265,37063.4408961865,43358.5510421546,51080.4402484085,"",22.3
143,"Canada","Snow Lake","Hard Rock",54.88,-100.03,"No info","No Info",NA,NA,NA,FALSE,0,0,25.0181,25.0181,52867.4490147664,60868.7495882355,63178.8823998022,1.250905,0.31272625,19102.9684159287,126053693.925837,"Quantile",0,0,0,0,10,"Hard Rock",20.4,1.73,0.265,33544.9646459407,44431.0878751503,47574.1257140167,"",22.3
144,"Portugal","Alvarroes","Hard Rock",40.48,-7.34,"Producing","Open",NA,NA,NA,TRUE,0,0,23.7228152610442,23.7228152610442,52478.0823262518,58002.1220575409,63563.048834683,1.18614076305221,0.296535190763052,19102.9684159287,0,"Quantile",0.38,0.38,0.38,0.38,3,"Hard Rock",23.5,1.64,0.21,34085.6738306985,41078.1291867607,48117.2770059279,"",34.9
145,"Brazil","Cachoeira","Hard Rock",-16.78,-41.91,"Producing","Open",NA,NA,NA,TRUE,0,0,23.016652,23.016652,61666.157585087,66853.3390145962,70924.4236503375,1.1508326,0.28770815,19102.9684159287,0,"Quantile",0.124295237463518,0.231576678163969,1.07082472290062,1.07082472290062,3,"Hard Rock",40.9,2.83,0.34,34961.2236137682,42820.5894160549,48988.8994702083,"",56.2
146,"Canada","McCombe","Hard Rock",50.93,-91.71,"No info","No Info",NA,NA,0.469170013386881,FALSE,0,0,21.1126506024096,21.1126506024096,53258.1944513973,59483.7107486988,63560.50501541,1.05563253012048,0.26390813253012,19102.9684159287,126053693.925837,"Quantile",0,0,0,0,10,"Hard Rock",20.4,1.73,0.265,34076.5910903365,42546.6812907466,48093.3401570204,"",22.3
147,"Canada","Thor/Echo","Hard Rock",62.45,-112.21,"No info","No Info",NA,NA,NA,FALSE,0,0,20.01448,20.01448,53210.4444711582,58048.1422037181,63556.9242140288,1.000724,0.250181,19102.9684159287,126053693.925837,"Quantile",0,0,0,0,10,"Hard Rock",20.4,1.73,0.265,34011.6251308275,40593.5268077798,48088.4683184065,"",22.3
148,"Australia","Finniss","Hard Rock",-12.68,130.77,"Producing","Open",0.603882195448461,0.696787148594378,0.62710843373494,TRUE,45.4769745649264,0,0,45.4769745649264,60431.5419396522,64106.8791755426,65993.04237624,4.34397895923351,1.08599473980838,19102.9684159287,0,"Regression",2.55062839540993,2.93646642577315,4.34397895923351,3.78170204771745,3,"Hard Rock",18.8,1.57,0.3,33100.7741995032,38351.2559650608,41045.7748232,"",18.1
149,"Canada","Tanco/Bernic Lake","Hard Rock",50.43,-95.44,"Producing","Open",NA,NA,NA,TRUE,0,0,19.013756,19.013756,55173.6675071476,63506.9724603568,65473.7489267904,6.96881457824535,1.74220364456134,19102.9684159287,0,"Quantile",0.183226976382712,1.19802253788697,3.06631598722525,6.96881457824535,3,"Hard Rock",20.4,1.73,0.265,36682.6768804729,48020.5067487847,50696.393097674,"",22.3
150,"China","Ningdu","Hard Rock",24.43,115.87,"No info","No Info",NA,NA,NA,FALSE,0,0,18.7872225230103,18.7872225230103,58109.1378787651,62479.1937155735,68619.3085241179,0.939361126150514,0.234840281537629,19102.9684159287,126053693.925837,"Quantile",0,0,0,0,10,"Hard Rock",22.1,2.94,0.25,34894.8505050201,40721.5916207647,48908.4113654906,"",19
151,"Canada","Raleigh Lake","Hard Rock",49.41,-91.94,"No info","No Info",NA,0.30746039256675,0.269424364123159,FALSE,0,6.824,10.5,17.324,54540.8035475821,61908.066392885,62989.1607437279,0.8662,0.21655,19102.9684159287,126053693.925837,"Quantile",0,0,0,0,10,"Hard Rock",20.4,1.73,0.265,35821.6374797035,45845.1243440612,47316.0010118747,"",22.3
152,"China","Baishuidong","Hard Rock",28.36,114.58,"Producing","Open",NA,0.155727622890368,0.176519410977242,TRUE,0,10.9023962516734,3.73013386880857,14.6325301204819,60210.81072609,69796.5279382753,70736.1019428346,0.731626506024096,0.182906626506024,19102.9684159287,0,"Quantile",0,0,0,0,3,"Hard Rock",22.1,2.94,0.25,37697.08096812,50478.0372510337,51730.8025904461,"",19
153,"Brazil","Grota do Cirilo (Lavra)","Hard Rock",-16.74,-41.9,"No info","No Info",NA,0.512093663168078,0.404136546184739,FALSE,0,11.1783974011911,1.05208446128858,12.2304818624797,63633.2786011978,69079.4324250593,71834.7794803455,0.611524093123985,0.152881023280996,19102.9684159287,126053693.925837,"Quantile",0,0,0,0,10,"Hard Rock",40.9,2.83,0.34,37941.7100018149,46193.4582197868,50368.226485372,"",56.2
154,"Portugal","Barroso","Hard Rock",40.431158,-7.340508,"No info","No Info",NA,NA,NA,FALSE,0,0,10.00724,10.00724,52084.9740743371,56822.2684840301,63152.51232275,0.500362,0.1250905,19102.9684159287,126053693.925837,"Quantile",0,0,0,0,10,"Hard Rock",23.5,1.64,0.21,33588.068448528,39584.6436506711,47597.6105351266,"",34.9
155,"Canada","Nama Creek","Hard Rock",49.44,-88.04,"No info","No Info",NA,NA,NA,FALSE,0,0,10.00724,10.00724,54156.0592699611,64120.4088575987,64487.1523123627,0.500362,0.1250905,19102.9684159287,126053693.925837,"Quantile",0,0,0,0,10,"Hard Rock",20.4,1.73,0.265,35298.175877498,48855.1140919711,49354.0847787247,"",22.3
156,"Canada","Violet/Herb Lake","Hard Rock",54.86,-99.71,"No info","No Info",NA,NA,NA,FALSE,0,0,10.00724,10.00724,53888.4457748158,57660.8005631831,64233.7390810774,0.500362,0.1250905,19102.9684159287,126053693.925837,"Quantile",0,0,0,0,10,"Hard Rock",20.4,1.73,0.265,34934.0758841031,40066.5313784804,49009.3048722142,"",22.3
157,"Canada","Moose 2","Hard Rock",62.18,-112.22,"No info","No Info",NA,NA,NA,FALSE,0,0,10.00724,10.00724,53678.0098388635,60463.1809222756,63976.4885151847,0.500362,0.1250905,19102.9684159287,126053693.925837,"Quantile",0,0,0,0,10,"Hard Rock",20.4,1.73,0.265,34647.7684882496,43879.2937718035,48659.3041022921,"",22.3
158,"Portugal","C 57 Portugal (Sociedade Mineira de Pegmatites)","Hard Rock",40.48,-7.3,"Producing","Open",NA,NA,NA,TRUE,0,0,8.0641499330656,8.0641499330656,53843.0230051226,59425.0510245114,64923.1625855224,0.40320749665328,0.10080187416332,19102.9684159287,0,"Quantile",0,0,0,0,3,"Hard Rock",23.5,1.64,0.21,35813.4468419273,42879.3050943182,49838.9399816739,"",34.9
159,"Canada","Sirmac","Hard Rock",50.68,-74.29,"Evaluation","Evaluation",NA,NA,NA,FALSE,0,1.75094160391252,0.238638396087479,1.98958,41855.9355344066,47076.3684436499,52152.8948339454,0.099479,0.02486975,19102.9684159287,126053693.925837,"Report",0,0,0,0,8,"Hard Rock",20.4,1.73,0.265,18563.3136522539,25665.9434607482,32572.7820870005,"",22.3
160,"Canada","Niemi Lake","Hard Rock",49.3,-87.9,"No info","No Info",NA,NA,NA,FALSE,0,0,1.000724,1.000724,55004.7237745057,60260.6888885265,65303.8104080161,0.0500362,0.01250905,19102.9684159287,126053693.925837,"Quantile",0,0,0,0,10,"Hard Rock",20.4,1.73,0.265,36452.8214619125,43603.7944061585,50465.1842285933,"",22.3
